City_ID,City,Lat,Lng,Max Temp,Humidity,Cloudiness,Wind Speed,Country,Date
0,mataura,-46.1927,168.8643,4.24,99,16,1.56,NZ,1680195680
1,umm kaddadah,13.6017,26.6876,28.32,9,23,5.84,SD,1680195680
2,saint george,37.1041,-113.5841,9.41,62,40,4.63,US,1680195603
3,port lincoln,-34.7333,135.8667,13.99,77,100,1.4,AU,1680195609
4,new norfolk,-42.7826,147.0587,12.73,79,91,1.88,AU,1680195681
5,jamestown,42.097,-79.2353,-0.2,59,0,2.06,US,1680195559
6,busselton,-33.65,115.3333,18.87,66,79,6.15,AU,1680195682
7,ostrovnoy,68.0531,39.5131,-2.09,86,100,7.28,RU,1680195682
8,prince george,53.9166,-122.753,1.25,73,0,1.03,CA,1680195683
9,atuona,-9.8,-139.0333,26.92,75,33,6.84,PF,1680195683
10,fairbanks,64.8378,-147.7164,-6.06,67,0,2.06,US,1680195683
11,bengkulu,-3.8004,102.2655,22.91,93,100,5.08,ID,1680195684
12,kavaratti,10.5669,72.642,27.51,69,18,4.69,IN,1680195684
13,morgan city,29.6994,-91.2068,24.44,73,0,5.14,US,1680195656
14,fulton,33.7668,-84.4499,21.81,28,0,2.57,US,1680195684
15,albany,42.6001,-73.9662,2.24,39,48,3.13,US,1680195403
16,rocha,-34.4833,-54.3333,20.54,70,100,4.54,UY,1680195685
17,avarua,-21.2078,-159.775,25.03,94,75,4.63,CK,1680195685
18,mar del plata,-38.0023,-57.5575,21.57,63,40,4.12,AR,1680195613
19,khatanga,71.9667,102.5,-26.74,98,97,3.44,RU,1680195686
20,andahuaylas,-13.6556,-73.3872,16.24,69,100,3.11,PE,1680195686
21,shatalovo,54.334,32.4465,-2.48,87,3,2.0,RU,1680195686
22,codrington,-38.2667,141.9667,14.24,75,81,4.73,AU,1680195687
23,lavrentiya,65.5833,-171.0,-8.31,87,100,3.56,RU,1680195687
24,sembakung,3.8167,117.25,22.94,99,96,0.6,ID,1680195687
25,kahului,20.8947,-156.47,23.25,93,42,0.45,US,1680195687
26,amahai,-3.3333,128.9167,25.75,80,99,1.73,ID,1680195688
27,vestmanna,62.1564,-7.1664,6.51,100,100,7.72,FO,1680195688
28,jiwani,25.05,61.7417,24.63,73,0,6.3,PK,1680195689
29,sligo,54.2697,-8.4694,13.96,58,40,2.06,IE,1680195689
30,namatanai,-3.6667,152.4333,24.39,90,100,3.62,PG,1680195689
31,tuatapere,-46.1333,167.6833,5.05,91,16,1.76,NZ,1680195690
32,port elizabeth,-33.918,25.5701,19.16,73,20,9.26,ZA,1680195599
33,brae,60.3964,-1.353,8.94,88,93,1.47,GB,1680195691
34,coihaique,-45.5752,-72.0662,9.97,57,75,1.54,CL,1680195592
35,bodmin,50.4715,-4.7243,11.98,87,75,9.77,GB,1680195692
36,muriti,-1.9833,32.9167,22.86,69,83,2.28,TZ,1680195693
37,praia da vitoria,38.7333,-27.0667,17.64,77,40,2.56,PT,1680195693
38,hadano,35.3711,139.2236,10.51,73,94,2.03,JP,1680195693
39,lompoc,34.6391,-120.4579,13.12,81,20,2.68,US,1680195693
40,vaini,-21.2,-175.2,24.09,94,20,2.06,TO,1680195694
41,sherlovaya gora,50.5667,116.25,2.04,68,8,2.88,RU,1680195694
42,bathsheba,13.2167,-59.5167,30.34,54,20,10.29,BB,1680195694
43,puerto el triunfo,13.2833,-88.55,33.73,37,0,2.19,SV,1680195694
44,yanam,16.7333,82.2167,25.36,82,21,1.92,IN,1680195694
45,vila velha,-20.3297,-40.2925,33.97,56,0,4.12,BR,1680195658
46,panguna,-6.3164,155.4848,19.76,95,100,0.71,PG,1680195695
47,rikitea,-23.1203,-134.9692,25.95,71,100,1.46,PF,1680195695
48,souillac,-20.5167,57.5167,27.21,89,40,5.14,MU,1680195695
49,torbay,47.6666,-52.7314,3.82,67,75,1.54,CA,1680195695
50,dudinka,69.4058,86.1778,-25.77,100,54,3.18,RU,1680195695
51,qaanaaq,77.484,-69.3632,-21.62,71,76,2.2,GL,1680195696
52,marau,-28.4492,-52.2,23.97,96,100,1.29,BR,1680195458
53,surt,31.2089,16.5887,15.78,60,0,6.16,LY,1680195696
54,morondava,-20.2833,44.2833,25.98,79,20,4.18,MG,1680195696
55,council bluffs,41.2619,-95.8608,16.9,54,0,9.77,US,1680195426
56,sinnamary,5.3833,-52.95,28.15,70,49,5.17,GF,1680195697
57,vila,42.0304,-8.1588,12.61,70,99,5.58,PT,1680195697
58,zenzeli,45.9241,47.0474,6.85,53,100,8.8,RU,1680195697
59,huarmey,-10.0681,-78.1522,27.82,69,36,3.84,PE,1680195697
60,upernavik,72.7868,-56.1549,-25.01,88,19,3.42,GL,1680195697
61,hobart,-42.8794,147.3294,12.92,76,100,4.12,AU,1680195698
62,bredasdorp,-34.5322,20.0403,16.75,74,62,2.82,ZA,1680195698
63,pangnirtung,66.1451,-65.7125,-15.0,78,75,1.03,CA,1680195699
64,muros,42.7762,-9.0603,17.27,80,100,10.55,ES,1680195699
65,port hardy,50.6996,-127.4199,6.0,75,100,1.54,CA,1680195699
66,hithadhoo,-0.6,73.0833,28.23,72,3,3.47,MV,1680195699
67,susanville,40.4163,-120.653,1.62,73,0,0.89,US,1680195701
68,zdvinsk,54.7021,78.661,-6.44,87,13,4.19,RU,1680195701
69,dikson,73.5069,80.5464,-25.3,100,94,2.92,RU,1680195702
70,tuktoyaktuk,69.4541,-133.0374,-22.0,77,0,6.17,CA,1680195702
71,araouane,18.9048,-3.5265,35.97,5,0,6.53,ML,1680195702
72,butajira,8.1167,38.3667,17.98,75,81,1.47,ET,1680195702
73,bowen,-20.0167,148.2333,25.77,80,3,3.58,AU,1680195702
74,ous,60.9058,61.5186,-4.58,81,40,3.4,RU,1680195703
75,ushuaia,-54.8,-68.3,7.79,49,75,2.06,AR,1680195704
76,wad rawah,15.1603,33.1397,31.53,7,32,5.3,SD,1680195704
77,punta arenas,-53.15,-70.9167,7.06,49,75,11.83,CL,1680195543
78,kapaa,22.0752,-159.319,22.99,94,31,0.89,US,1680195705
79,san andres,12.5847,-81.7006,26.8,70,5,8.47,CO,1680195705
80,high level,58.5169,-117.136,-4.94,58,75,3.6,CA,1680195655
81,bluff,-46.6,168.3333,8.44,90,14,4.82,NZ,1680195705
82,iquitos,-3.7481,-73.2472,30.02,84,75,2.06,PE,1680195706
83,jiayuguan,39.8167,98.3,10.27,12,31,5.59,CN,1680195706
84,narsaq,60.9167,-46.05,1.12,57,0,0.86,GL,1680195706
85,beringovskiy,63.05,179.3167,-16.67,96,66,3.1,RU,1680195706
86,jijiga,9.35,42.8,20.59,70,97,1.02,ET,1680195706
87,ganzhou,28.8184,115.4327,13.86,88,75,1.24,CN,1680195706
88,antalaha,-14.9003,50.2788,25.86,83,79,4.3,MG,1680195706
89,alice town,25.7167,-79.3,23.97,73,61,9.09,BS,1680195706
90,bethel,41.3712,-73.414,5.83,38,2,1.34,US,1680195707
91,port alfred,-33.5906,26.891,16.77,79,1,1.34,ZA,1680195707
92,barrow,71.2906,-156.7887,-18.99,84,0,3.6,US,1680195707
93,saskylakh,71.9167,114.0833,-33.26,100,98,2.18,RU,1680195708
94,krasnyy kut,50.95,46.9667,11.75,85,100,4.0,RU,1680195708
95,lorengau,-2.0226,147.2712,26.72,80,98,2.41,PG,1680195708
96,lima,-12.0432,-77.0282,25.14,73,75,4.12,PE,1680195534
97,kalmunai,7.4167,81.8167,26.01,77,92,2.63,LK,1680195708
98,oranjemund,-28.55,16.4333,16.91,79,2,9.57,NA,1680195580
99,cabatuan,10.8794,122.486,25.11,81,97,3.58,PH,1680195709
100,iqaluit,63.7506,-68.5145,-16.15,71,40,2.06,CA,1680195633
101,ordzhonikidze,52.4411,61.7408,-4.26,86,41,6.89,KZ,1680195709
102,corinto,37.9407,22.9573,15.5,62,9,1.98,GR,1680195709
103,victoria,22.2855,114.1577,21.29,91,100,2.24,HK,1680195423
104,hermanus,-34.4187,19.2345,17.11,80,21,2.3,ZA,1680195710
105,talnakh,69.4865,88.3972,-26.0,98,86,2.77,RU,1680195710
106,riyadh,24.6877,46.7219,28.08,20,77,7.57,SA,1680195517
107,micheweni,-4.9667,39.8333,27.58,76,23,3.98,TZ,1680195710
108,clyde river,70.4692,-68.5914,-17.87,78,100,3.09,CA,1680195710
109,pudozh,61.8099,36.5345,-7.09,95,99,1.14,RU,1680195711
110,marawi,7.9986,124.2928,20.59,94,100,0.88,PH,1680195711
111,ihosy,-22.4,46.1167,20.28,93,44,1.25,MG,1680195711
112,semarang,-6.9932,110.4203,25.96,83,100,1.54,ID,1680195580
113,carnarvon,-24.8667,113.6333,23.76,77,100,4.37,AU,1680195711
114,imbituba,-28.24,-48.6703,27.11,70,31,5.56,BR,1680195711
115,vrangel,42.7297,133.0839,6.27,60,39,2.72,RU,1680195712
116,hamilton,39.1834,-84.5333,12.64,42,10,1.79,US,1680195716
117,luderitz,-26.6481,15.1594,19.06,66,0,10.91,NA,1680195580
118,thompson,55.7435,-97.8558,-11.91,52,20,5.66,CA,1680195617
119,arraial do cabo,-22.9661,-42.0278,29.98,70,40,4.12,BR,1680195716
120,kudahuvadhoo,2.6708,72.8944,27.96,73,19,2.49,MV,1680195716
121,malgobek,43.5092,44.5931,1.94,91,100,1.97,RU,1680195716
122,samfya,-11.3649,29.5565,20.41,86,92,2.0,ZM,1680195717
123,tyumentsevo,53.3224,81.498,-6.45,89,31,2.62,RU,1680195717
124,saint-philippe,-21.3585,55.7679,25.77,88,86,4.07,RE,1680195717
125,akyab,20.15,92.9,25.87,81,12,3.37,MM,1680195717
126,qiqihar,47.3408,123.9672,7.99,44,3,0.95,CN,1680195717
127,mount gambier,-37.8333,140.7667,11.63,91,39,1.9,AU,1680195718
128,castro,-24.7911,-50.0119,26.37,57,0,2.74,BR,1680195718
129,cape town,-33.9258,18.4232,19.23,67,20,9.26,ZA,1680195571
130,avera,33.194,-82.5271,22.17,39,0,1.52,US,1680195718
131,saint-francois,46.4154,3.9054,17.69,45,0,4.63,FR,1680195547
132,port augusta,-32.5,137.7667,16.76,74,95,4.18,AU,1680195718
133,tazovskiy,67.4667,78.7,-25.31,99,28,4.05,RU,1680195718
134,yarada,17.65,83.2667,28.18,83,40,2.06,IN,1680195718
135,sarai,53.7458,41.0213,6.82,95,100,3.84,RU,1680195719
136,paamiut,61.994,-49.6678,-5.14,62,0,5.64,GL,1680195719
137,yellowknife,62.456,-114.3525,-16.71,71,75,2.57,CA,1680195654
138,san patricio,28.017,-97.5169,26.04,73,100,8.49,US,1680195719
139,ribeira grande,38.5167,-28.7,18.22,77,20,3.6,PT,1680195719
140,leningradskiy,69.3833,178.4167,-26.32,100,69,2.5,RU,1680195719
141,kavieng,-2.5744,150.7967,24.71,92,100,6.67,PG,1680195719
142,pevek,69.7008,170.3133,-25.12,98,90,3.13,RU,1680195719
143,nanortalik,60.1432,-45.2371,-3.64,69,4,5.04,GL,1680195719
144,kaitangata,-46.2817,169.8464,8.78,92,70,1.48,NZ,1680195719
145,fortuna,40.5982,-124.1573,11.63,78,59,1.34,US,1680195720
146,gruia,44.2675,22.7047,14.41,54,79,2.07,RO,1680195720
147,abalak,58.1286,68.5944,-6.68,82,3,1.27,RU,1680195720
148,rio gallegos,-51.6226,-69.2181,7.03,39,75,8.75,AR,1680195720
149,nikolskoye,59.7035,30.7861,-2.06,98,97,1.8,RU,1680195720
150,onega,63.9061,38.1404,-6.48,91,98,2.02,RU,1680195720
151,presidencia roque saenz pena,-26.7852,-60.4388,36.72,37,20,3.66,AR,1680195720
152,trairi,-3.2778,-39.2689,29.13,68,55,4.18,BR,1680195694
153,hurghada,27.2574,33.8129,22.02,23,1,13.38,EG,1680195720
154,richards bay,-28.783,32.0377,20.2,90,100,2.05,ZA,1680195701
155,aklavik,68.2191,-135.0107,-19.0,71,20,3.6,CA,1680195721
156,cockburn town,21.4612,-71.1419,25.15,75,1,5.57,TC,1680195721
157,atherton,53.5237,-2.4935,14.47,71,43,0.89,GB,1680195722
158,coquimbo,-29.9533,-71.3436,21.85,64,0,4.12,CL,1680195722
159,derzhavinsk,51.1,66.3167,-0.63,63,1,9.01,KZ,1680195724
160,cairns,-16.9167,145.7667,24.97,91,40,1.54,AU,1680195622
161,talkha,31.0539,31.3779,11.38,51,2,4.84,EG,1680195560
162,lianzhou,24.7811,112.3825,15.65,94,100,1.02,CN,1680195726
163,viedma,-40.8135,-62.9967,21.18,15,76,8.69,AR,1680195726
164,puerto ayacucho,5.6639,-67.6236,36.07,34,84,1.84,VE,1680195727
165,kangaatsiaq,68.3065,-53.4641,-19.28,89,42,2.98,GL,1680195727
166,kungurtug,50.5994,97.5228,-1.23,88,87,0.57,RU,1680195727
167,yaan,7.3833,8.5667,36.32,26,14,0.38,NG,1680195728
168,titay,7.8125,122.5344,24.53,87,100,0.58,PH,1680195728
169,bharatpur,27.2167,77.4833,23.45,54,99,3.71,IN,1680195729
170,zabid,14.1951,43.3152,30.62,55,85,2.36,YE,1680195729
171,najran,17.4924,44.1277,28.36,36,45,1.25,SA,1680195729
172,chokurdakh,70.6333,147.9167,-28.09,100,96,1.67,RU,1680195730
173,georgiyevka,43.0369,74.7114,11.02,87,40,3.0,KZ,1680195730
174,tokonou,9.65,-9.7833,27.54,56,88,6.36,GN,1680195730
175,cabo san lucas,22.8909,-109.9124,26.4,42,100,4.17,MX,1680195558
176,kupang,-10.1667,123.5833,25.29,85,99,3.12,ID,1680195731
177,nong khae,14.3406,100.8673,28.86,72,3,3.58,TH,1680195732
178,la reforma,25.0833,-108.05,23.52,32,100,1.04,MX,1680195732
179,bonfim,3.0833,-59.95,35.43,37,75,2.08,BR,1680195732
180,hilo,19.7297,-155.09,22.93,88,100,0.89,US,1680195670
181,tawau,4.2498,117.8871,25.07,88,100,0.89,MY,1680195734
182,constitucion,-35.3333,-72.4167,19.46,40,1,6.75,CL,1680195735
183,puerto ayora,-0.7393,-90.3518,29.98,85,71,3.13,EC,1680195735
184,butaritari,3.0707,172.7902,27.07,81,99,5.13,KI,1680195735
185,raudeberg,61.9875,5.1352,4.42,67,100,0.69,NO,1680195736
186,naze,28.3667,129.4833,17.51,92,100,9.45,JP,1680195736
187,lubango,-14.9172,13.4925,17.1,92,99,0.54,AO,1680195737
188,baraboo,43.4711,-89.7443,3.65,56,100,4.63,US,1680195650
189,zhigansk,66.7697,123.3711,-16.62,85,100,11.76,RU,1680195739
190,longyearbyen,78.2186,15.6401,-8.09,86,75,2.06,SJ,1680195739
191,cidreira,-30.1811,-50.2056,24.25,79,97,3.7,BR,1680195739
192,tungor,53.3808,142.9564,-0.71,100,100,0.49,RU,1680195740
193,chuy,-33.6971,-53.4616,20.3,93,100,5.23,UY,1680195741
194,emerald,-23.5333,148.1667,20.75,87,98,4.85,AU,1680195741
195,youghal,51.95,-7.8506,10.56,100,100,9.15,IE,1680195742
196,caldwell,43.6629,-116.6874,4.45,90,100,7.2,US,1680195537
197,tari,12.4086,4.4914,37.34,7,76,2.36,NG,1680195742
198,adrar,20.5022,-10.0711,36.45,6,37,7.91,MR,1680195742
199,diapaga,12.0708,1.7889,36.81,7,100,1.36,BF,1680195743
200,aripuana,-9.1667,-60.6333,29.54,65,88,0.72,BR,1680195743
201,soe,-9.8607,124.284,18.27,94,100,1.88,ID,1680195744
202,axim,4.8699,-2.2405,28.03,73,100,5.1,GH,1680195744
203,newala,-10.9431,39.2787,19.98,97,100,1.39,TZ,1680195744
204,lerwick,60.1545,-1.1494,8.0,92,89,3.19,GB,1680195745
205,east wenatchee bench,47.4257,-120.2812,10.88,50,93,1.39,US,1680195745
206,kodiak,57.79,-152.4072,1.29,98,100,4.66,US,1680195745
207,puerto madryn,-42.7692,-65.0385,17.01,31,23,8.87,AR,1680195746
208,santa marta,11.2408,-74.199,32.03,62,20,3.09,CO,1680195592
209,san quintin,30.4833,-115.95,14.09,59,43,6.31,MX,1680195746
210,ketchikan,55.3422,-131.6461,2.99,79,60,1.08,US,1680195747
211,lasa,46.6166,10.7002,11.12,97,100,2.13,IT,1680195747
212,henties bay,-22.116,14.2845,16.02,85,2,3.82,NA,1680195747
213,east london,-33.0153,27.9116,19.52,72,0,7.2,ZA,1680195747
214,svetlaya,46.5389,138.3297,2.51,67,76,2.86,RU,1680195748
215,leshukonskoye,64.8989,45.7622,0.88,99,100,4.29,RU,1680195748
216,killybegs,54.6333,-8.45,14.84,76,95,4.73,IE,1680195748
217,karratha,-20.7377,116.8463,27.59,77,37,3.63,AU,1680195748
218,vostok,46.4856,135.8833,-3.59,78,45,2.29,RU,1680195749
219,vardo,70.3705,31.1107,-2.01,93,75,3.6,NO,1680195749
220,matara,5.9485,80.5353,25.31,87,12,0.71,LK,1680195749
221,mocorito,25.4833,-107.9167,25.7,23,100,0.6,MX,1680195749
222,hirara,24.8,125.2833,21.15,88,96,5.66,JP,1680195750
223,klaksvik,62.2266,-6.589,7.51,98,100,11.9,FO,1680195750
224,wageningen,51.9667,5.6667,15.21,68,100,8.75,NL,1680195751
225,provideniya,64.3833,-173.3,-8.57,88,99,3.53,RU,1680195751
226,aykhal,66.0,111.5,-18.73,97,100,6.04,RU,1680195751
227,mezen,65.8522,44.24,0.56,98,100,4.59,RU,1680195751
228,mehtar lam,34.6714,70.2094,14.42,82,100,0.88,AF,1680195751
229,ponta do sol,32.6667,-17.1,22.35,58,35,1.34,PT,1680195752
230,igboho,8.8333,3.75,34.87,26,100,2.32,NG,1680195752
231,talcahuano,-36.7167,-73.1167,16.82,39,0,6.69,CL,1680195752
232,half moon bay,37.4636,-122.4286,11.79,82,40,2.57,US,1680195612
233,douentza,14.9951,-2.9517,37.75,4,4,5.79,ML,1680195753
234,hailar,49.2,119.7,2.86,69,1,3.4,CN,1680195753
235,say,13.1007,2.3689,39.31,7,100,3.72,NE,1680195754
236,georgetown,5.4112,100.3354,29.97,74,20,1.54,MY,1680195664
237,yuzhno-kurilsk,44.0306,145.8556,2.81,96,86,6.29,RU,1680195754
238,broome,42.2506,-75.833,1.37,61,75,6.17,US,1680195758
239,luzhou,28.8724,105.4405,17.79,70,97,1.7,CN,1680195759
240,airai,-8.9266,125.4092,15.19,97,100,0.94,TL,1680195759
241,susangerd,31.5608,48.1831,25.93,25,2,2.28,IR,1680195760
242,lubbock,33.6001,-101.8338,18.14,70,100,10.8,US,1680195668
243,teknaf,20.8624,92.3058,24.38,88,1,1.36,BD,1680195760
244,pangkalanbuun,-2.6833,111.6167,23.89,97,99,1.16,ID,1680195761
245,graaff-reinet,-32.2522,24.5308,18.08,32,0,2.36,ZA,1680195761
246,moncton,46.1159,-64.8019,4.27,65,75,10.8,CA,1680195761
247,lebork,54.5392,17.7501,10.26,92,100,3.74,PL,1680195762
248,anloga,5.7947,0.8973,28.54,78,90,7.2,GH,1680195762
249,muroto,33.2833,134.15,15.14,57,98,2.18,JP,1680195762
250,ust-nera,64.5667,143.2,-5.0,95,100,2.83,RU,1680195763
251,mount isa,-20.7333,139.5,24.87,41,6,1.54,AU,1680195637
252,fairview,40.8126,-73.999,6.52,34,0,5.66,US,1680195611
253,yinchuan,38.4681,106.2731,13.1,43,50,4.55,CN,1680195765
254,buin,-33.7333,-70.75,31.9,15,2,2.37,CL,1680195765
255,mokobeng,-22.9965,27.6678,26.29,41,85,3.04,BW,1680195765
256,constantine,36.365,6.6147,24.67,27,0,5.14,DZ,1680195681
257,khasan,42.4308,130.6434,6.65,58,17,1.42,RU,1680195766
258,acatlan,20.15,-98.45,21.83,42,85,1.31,MX,1680195766
259,shimoda,34.6667,138.95,11.17,69,99,1.83,JP,1680195766
260,juba,4.8517,31.5825,30.33,44,89,0.97,SS,1680195766
261,tateyama,34.9833,139.8667,14.96,76,88,2.92,JP,1680195766
262,bam,29.106,58.357,23.33,26,56,0.55,IR,1680195766
263,locri,38.2414,16.2623,14.52,62,5,2.57,IT,1680195766
264,maragogi,-9.0122,-35.2225,28.45,65,15,3.78,BR,1680195766
265,kuala terengganu,5.3302,103.1408,26.97,83,20,1.03,MY,1680195767
266,sitka,57.0531,-135.33,2.48,71,96,1.14,US,1680195767
267,xuddur,4.1213,43.8894,31.87,31,17,4.53,SO,1680195767
268,kalaleh,37.3807,55.4916,21.78,43,40,4.12,IR,1680195767
269,tiksi,71.6872,128.8694,-29.83,100,100,2.64,RU,1680195768
270,siloam springs,36.1881,-94.5405,18.01,51,100,6.71,US,1680195768
271,asmar,35.0333,71.3581,13.83,78,99,1.11,AF,1680195768
272,el roble,9.1019,-75.1951,34.33,42,48,1.87,CO,1680195768
273,general roca,-39.0333,-67.5833,23.12,17,24,7.63,AR,1680195768
274,san ignacio,17.1561,-89.0714,29.08,65,20,2.06,BZ,1680195768
275,mahebourg,-20.4081,57.7,27.16,89,40,5.14,MU,1680195769
276,srednekolymsk,67.45,153.6833,-16.14,100,100,1.6,RU,1680195769
277,hammerfest,70.6634,23.6821,-0.75,100,100,2.06,NO,1680195769
278,guiratinga,-16.3494,-53.7583,31.38,45,28,2.93,BR,1680195770
279,neijiang,29.5835,105.0622,17.16,66,100,2.58,CN,1680195770
280,sioux lookout,50.1001,-91.917,-6.96,58,75,6.17,CA,1680195622
281,anshun,26.25,105.9333,11.61,89,100,3.2,CN,1680195771
282,dangara,29.6799,75.8931,20.68,60,100,4.31,IN,1680195771
283,ahipara,-35.1667,173.1667,10.49,83,1,2.04,NZ,1680195771
284,sikonge,-5.6333,32.7667,19.36,92,56,2.07,TZ,1680195771
285,bilibino,68.0546,166.4372,-18.65,97,100,1.28,RU,1680195771
286,anadyr,64.75,177.4833,-14.72,85,20,5.0,RU,1680195774
287,sorong,-0.8833,131.25,26.8,80,100,1.59,ID,1680195774
288,iglesias,39.3114,8.535,16.55,58,89,1.16,IT,1680195774
289,ayna,-12.65,-73.9167,15.49,99,100,1.19,PE,1680195774
290,mehamn,71.0357,27.8492,-2.03,100,100,0.0,NO,1680195774
291,gunjur,13.2019,-16.7339,31.04,51,0,4.63,GM,1680195774
292,padang,-0.9492,100.3543,22.03,93,100,2.14,ID,1680195725
293,cayenne,4.9333,-52.3333,30.02,70,75,5.14,GF,1680195774
294,boende,-0.2167,20.8667,20.57,98,100,1.25,CD,1680195775
295,waitati,-45.75,170.5667,8.1,94,24,1.13,NZ,1680195775
296,saint anthony,45.0205,-93.218,1.06,52,75,4.12,US,1680195775
297,rawson,-43.3002,-65.1023,14.16,41,0,8.75,AR,1680195678
298,evensk,61.95,159.2333,-16.76,99,100,1.46,RU,1680195775
299,cherskiy,68.75,161.3,-11.65,95,100,4.92,RU,1680195775
300,mana,5.6592,-53.7767,28.42,69,62,5.28,GF,1680195775
301,thinadhoo,0.5333,72.9333,28.23,73,3,3.2,MV,1680195775
302,santiago,-33.4569,-70.6483,31.41,27,0,3.6,CL,1680195575
303,geraldton,-28.7667,114.6,21.23,83,30,3.09,AU,1680195776
304,jalu,29.0331,21.5482,18.33,25,0,2.83,LY,1680195776
305,berlevag,70.8578,29.0864,-2.0,93,100,3.09,NO,1680195776
306,olafsvik,64.8945,-23.7142,2.84,92,100,5.89,IS,1680195776
307,hami,42.8,93.45,13.92,14,0,4.58,CN,1680195776
308,chapais,49.7834,-74.8492,-8.12,70,100,5.21,CA,1680195776
309,port keats,-14.25,129.55,26.24,79,100,1.14,AU,1680195776
310,akhaldaba,41.654,42.1516,-0.69,96,100,1.19,GE,1680195777
311,sobolevo,54.4299,31.8996,-2.54,91,6,1.81,RU,1680195777
312,wanning,18.8003,110.3967,23.98,92,33,1.7,CN,1680195777
313,kadhan,24.481,68.9859,26.24,49,1,7.12,PK,1680195777
314,pundaguitan,6.3711,126.1689,27.19,79,99,3.16,PH,1680195777
315,camacha,33.0833,-16.3333,23.68,31,0,2.57,PT,1680195777
316,ambilobe,-13.2,49.05,24.61,92,52,1.44,MG,1680195778
317,sur,22.5667,59.5289,25.5,51,0,1.17,OM,1680195778
318,saldanha,-33.0117,17.9442,16.96,84,26,8.92,ZA,1680195779
319,ilulissat,69.2167,-51.1,-11.99,61,20,2.06,GL,1680195779
320,batagay,67.6333,134.6333,-16.94,98,100,1.18,RU,1680195779
321,carutapera,-1.195,-46.02,28.8,72,94,3.44,BR,1680195779
322,emet,39.343,29.2585,-2.05,62,7,2.02,TR,1680195779
323,banda aceh,5.5577,95.3222,26.7,79,100,2.13,ID,1680195642
324,uvinza,-5.1036,30.3911,19.83,94,71,0.95,TZ,1680195780
325,muisne,0.6,-80.0333,27.59,78,32,2.51,EC,1680195780
326,brownsville,25.9018,-97.4975,24.98,80,75,6.69,US,1680195460
327,harper,4.375,-7.7169,28.4,71,97,3.42,LR,1680195780
328,linhares,-19.3911,-40.0722,33.93,33,57,1.78,BR,1680195658
329,sri aman,1.2376,111.4621,25.05,94,100,0.0,MY,1680195781
330,quesnel,52.9999,-122.5029,-4.72,80,0,1.54,CA,1680195781
331,roseburg,43.2165,-123.3417,5.84,89,100,1.54,US,1680195629
332,chongqing,29.5628,106.5528,18.46,64,0,4.0,CN,1680195784
333,los llanos de aridane,28.6585,-17.9182,25.86,28,0,7.2,ES,1680195784
334,umba,66.6871,34.3429,-9.22,92,47,3.31,RU,1680195785
335,asyut,27.181,31.1837,20.1,27,0,8.31,EG,1680195786
336,bria,6.5423,21.9863,28.23,49,82,2.42,CF,1680195786
337,tinskoy,56.1525,96.9161,-6.61,93,100,3.94,RU,1680195786
338,lebu,-37.6167,-73.65,14.73,60,26,6.99,CL,1680195766
339,antofagasta,-23.65,-70.4,22.6,69,10,3.36,CL,1680195717
340,oriximina,-1.7656,-55.8661,27.14,85,95,2.04,BR,1680195787
341,dunedin,-45.8742,170.5036,8.45,92,44,1.45,NZ,1680195787
342,winnemucca,40.973,-117.7357,1.03,64,0,1.54,US,1680195787
343,rundu,-17.9333,19.7667,25.05,44,75,2.32,NA,1680195788
344,hambantota,6.1241,81.1185,26.61,77,12,0.49,LK,1680195788
345,kattivakkam,13.2167,80.3167,29.05,82,99,5.95,IN,1680195788
346,nome,64.5011,-165.4064,-1.96,93,100,4.63,US,1680195789
347,sao filipe,14.8961,-24.4956,24.17,72,14,4.06,CV,1680195789
348,diamantino,-14.4086,-56.4461,31.49,52,97,2.64,BR,1680195616
349,berezovyy,51.6667,135.7,-5.77,91,48,1.67,RU,1680195790
350,rio grande,-32.035,-52.0986,28.06,74,100,2.01,BR,1680195790
351,niquero,20.0431,-77.5828,29.49,52,0,1.98,CU,1680195790
352,grimshaw,56.1834,-117.6027,-2.21,80,100,3.09,CA,1680195790
353,sao joao da barra,-21.6403,-41.0511,34.05,69,100,5.6,BR,1680195791
354,morant bay,17.8815,-76.4093,32.06,62,7,5.93,JM,1680195791
355,mathbaria,22.2876,89.9593,25.08,87,43,4.3,BD,1680195792
356,kjollefjord,70.9457,27.3465,-1.97,100,100,0.0,NO,1680195793
357,nelson,-41.2833,173.2833,9.05,83,1,1.34,NZ,1680195793
358,severo-kurilsk,50.6789,156.125,-0.6,71,4,1.61,RU,1680195793
359,kulachi,31.9286,70.4592,20.34,58,79,2.28,PK,1680195793
360,balkhash,46.844,74.9804,2.81,49,1,10.34,KZ,1680195794
361,san pedro,14.35,121.0167,27.97,79,20,1.54,PH,1680195775
362,dole,47.0833,5.5,17.95,51,0,5.66,FR,1680195795
363,do gonbadan,30.3586,50.7981,19.05,55,0,2.06,IR,1680195796
364,prachuap khiri khan,12.2167,99.75,27.05,91,84,1.52,TH,1680195795
365,port moresby,-9.4431,147.1797,24.68,94,0,1.54,PG,1680195797
366,verkhoyansk,67.5447,133.385,-16.31,98,100,2.21,RU,1680195797
367,norman wells,65.282,-126.8329,-12.98,66,20,4.12,CA,1680195798
368,sorokino,53.75,84.9167,-6.58,85,84,3.17,RU,1680195798
369,tasiilaq,65.6145,-37.6368,-2.91,69,91,3.73,GL,1680195798
370,tongchuan,35.0806,109.0897,11.56,40,80,1.89,CN,1680195798
371,pacific grove,36.6177,-121.9166,11.9,81,75,1.79,US,1680195559
372,zaysan,47.4667,84.8667,2.17,70,50,5.96,KZ,1680195799
373,vondrozo,-22.8167,47.2833,20.75,99,67,1.27,MG,1680195799
374,porterville,36.0652,-119.0168,10.95,81,100,1.54,US,1680195693
375,birao,10.2849,22.7882,32.46,10,50,2.8,CF,1680195800
376,plouzane,48.3833,-4.6167,12.18,90,100,10.8,FR,1680195800
377,esperance,-33.8667,121.9,15.91,74,20,5.11,AU,1680195800
378,gamba,-2.65,10.0,26.57,81,100,3.64,GA,1680195800
379,maralal,1.0968,36.698,17.53,76,81,3.15,KE,1680195801
380,vanimo,-2.6741,141.3028,25.25,86,85,1.61,PG,1680195801
381,churapcha,62.0025,132.4325,-1.48,95,100,7.72,RU,1680195801
382,tazmalt,36.3868,4.3989,24.37,42,50,1.74,DZ,1680195802
383,nantucket,41.2835,-70.0995,3.33,51,1,9.82,US,1680195668
384,saint-leu,-21.15,55.2833,26.46,95,80,4.71,RE,1680195803
385,ust-kuyga,70.0167,135.6,-24.22,99,100,2.78,RU,1680195803
386,klyuchi,52.2667,79.1667,-2.81,57,26,4.47,RU,1680195803
387,tabou,4.423,-7.3528,28.37,70,100,2.93,CI,1680195804
388,namibe,-15.1961,12.1522,23.72,82,100,4.17,AO,1680195804
389,beloha,-25.1667,45.05,22.55,88,14,4.08,MG,1680195804
390,christchurch,-43.5333,172.6333,10.51,87,75,3.6,NZ,1680195804
391,cap malheureux,-19.9842,57.6142,26.93,80,16,2.24,MU,1680195669
392,snezhnogorsk,69.1933,33.2531,-3.12,84,99,8.87,RU,1680195806
393,lagos,6.5833,3.75,32.18,62,64,3.8,NG,1680195649
394,leh,34.1667,77.5833,-5.09,68,47,0.6,IN,1680195807
395,isangel,-19.55,169.2667,25.35,84,100,1.54,VU,1680195807
396,fomboni,-12.28,43.7425,27.87,77,17,2.71,KM,1680195807
397,galveston,29.3669,-94.9669,23.41,83,100,6.17,US,1680195808
398,cotorra,9.0389,-75.7897,35.02,44,71,1.13,CO,1680195808
399,santa lucia,27.9117,-15.5407,25.62,28,0,7.72,ES,1680195809
400,gayny,60.3071,54.3241,0.81,85,94,5.22,RU,1680195809
401,wonthaggi,-38.6044,145.5913,13.23,80,87,7.46,AU,1680195810
402,broken hill,-31.95,141.4333,16.41,49,93,2.95,AU,1680195810
403,puerto escondido,15.85,-97.0667,30.46,70,0,3.6,MX,1680195811
404,hasaki,35.7333,140.8333,11.79,76,46,5.35,JP,1680195811
405,pauini,-7.7136,-66.9764,34.3,46,53,1.29,BR,1680195812
406,melaka,2.196,102.2405,25.58,94,20,0.45,MY,1680195812
407,lensk,60.7253,114.9278,-8.87,84,100,4.0,RU,1680195812
408,searcy,35.2506,-91.7363,20.61,42,100,3.09,US,1680195578
409,arbelaez,4.2725,-74.4151,24.58,68,39,1.99,CO,1680195813
410,biak,-0.9131,122.8766,24.77,82,91,1.25,ID,1680195813
411,sosnovo-ozerskoye,52.5249,111.5418,1.93,72,1,2.68,RU,1680195813
412,rivne,50.6231,26.2274,5.78,78,88,2.99,UA,1680195695
413,sisimiut,66.9395,-53.6735,-10.21,64,0,2.78,GL,1680195813
414,wanxian,30.8039,108.3897,16.7,68,61,0.96,CN,1680195814
415,agadez,19.75,10.25,28.74,8,54,3.51,NE,1680195814
416,dubbo,-32.25,148.6167,8.07,87,0,0.0,AU,1680195636
417,shahr-e babak,30.1165,55.1186,17.68,23,10,0.53,IR,1680195815
418,trelew,-43.249,-65.3051,14.15,41,0,8.75,AR,1680195539
419,burns lake,54.2331,-125.7533,-5.32,75,98,1.44,CA,1680195816
420,grindavik,63.8424,-22.4338,7.97,93,100,6.17,IS,1680195816
421,wuchang,44.9143,127.15,7.31,42,7,1.75,CN,1680195816
422,filadelfia,39.9523,-75.1638,7.65,33,0,1.79,US,1680195730
423,maniitsoq,65.4167,-52.9,-7.81,57,0,1.57,GL,1680195817
424,ales,44.1333,4.0833,19.27,59,60,2.37,FR,1680195821
425,neftekamsk,56.092,54.2703,2.15,71,100,5.38,RU,1680195821
426,miedzyrzecz,52.4446,15.578,14.04,82,100,5.44,PL,1680195591
427,saint-pierre,-21.3393,55.4781,25.87,89,40,1.54,RE,1680195822
428,katherine,-14.4667,132.2667,21.18,73,93,1.54,AU,1680195626
429,maceio,-9.6658,-35.7353,30.69,58,40,4.63,BR,1680195822
430,ondjiva,-17.0667,15.7333,24.46,55,97,1.54,AO,1680195823
431,itarantim,-15.6597,-40.0656,32.66,27,1,2.85,BR,1680195823
432,harboore,56.6175,8.1807,6.75,97,100,7.06,DK,1680195823
433,komsomolskiy,40.4272,71.7189,16.4,55,100,3.09,UZ,1680195824
434,labuhan,-6.8844,112.2051,25.24,88,100,2.32,ID,1680195824
435,sal rei,16.1833,-22.9167,26.11,65,20,4.63,CV,1680195824
436,sulangan,11.1373,123.7228,27.52,79,100,4.45,PH,1680195824
437,atambua,-9.1061,124.8925,22.19,87,100,1.99,ID,1680195824
438,gloucester,51.8657,-2.2431,14.72,78,40,4.63,GB,1680195825
439,ferme-neuve,46.7001,-75.4493,-4.73,62,100,4.75,CA,1680195825
440,inhuma,-6.6683,-41.7078,30.21,54,55,2.67,BR,1680195825
441,mondeville,49.175,-0.3224,15.41,67,75,8.23,FR,1680195825
442,yining,29.0361,114.5636,13.99,90,78,0.56,CN,1680195825
443,lesnikovo,55.2822,65.3175,-4.78,86,8,3.25,RU,1680195825
444,cajati,-24.7361,-48.1228,34.13,40,0,1.28,BR,1680195826
445,litovko,49.2361,135.1742,-0.88,79,22,2.26,RU,1680195826
446,port-cartier,50.0334,-66.8654,-0.14,96,100,5.16,CA,1680195817
447,stornoway,58.2093,-6.3865,11.13,84,75,7.2,GB,1680195611
448,quatre cocos,-20.2078,57.7625,27.06,87,36,6.24,MU,1680195826
449,ixtapa,20.7,-105.2,25.57,47,100,0.0,MX,1680195648
450,sao gabriel da cachoeira,-0.1303,-67.0892,26.89,94,75,2.06,BR,1680195827
451,hervey bay,-25.2986,152.8535,21.34,70,82,5.44,AU,1680195827
452,quchan,37.106,58.5095,15.89,44,9,1.39,IR,1680195827
453,fraserburgh,57.6874,-2.0184,12.29,86,96,4.34,GB,1680195827
454,okhotsk,59.3833,143.3,-5.77,92,100,2.59,RU,1680195827
455,garissa,-0.4536,39.6401,33.06,42,76,1.79,KE,1680195827
456,plettenberg bay,-34.0527,23.3716,15.88,88,8,2.26,ZA,1680195828
457,krasnoselkup,65.7,82.4667,-22.19,97,58,5.04,RU,1680195828
458,yamada,39.4667,141.95,7.68,91,29,2.43,JP,1680195828
459,ankazoabo,-22.2833,44.5167,22.32,85,27,1.17,MG,1680195828
460,nalut,30.3333,10.85,24.35,18,0,2.4,LY,1680195828
461,yerofey pavlovich,53.9667,121.9667,-5.35,95,58,1.13,RU,1680195829
462,kirishi,59.4471,32.0205,-3.01,95,86,1.08,RU,1680195829
463,forestville,38.8451,-76.875,9.71,36,0,5.14,US,1680195557
464,takoradi,4.8845,-1.7554,28.98,68,100,5.68,GH,1680195829
465,necochea,-38.5473,-58.7368,18.29,35,62,3.8,AR,1680195829
466,outlook,51.5001,-107.0513,-4.37,94,100,3.61,CA,1680195607
467,lyubinskiy,55.1542,72.6925,-4.18,88,7,2.18,RU,1680195829
468,bonavista,48.6499,-53.1147,-0.65,73,12,1.58,CA,1680195830
469,sheltozero,61.3667,35.3667,-6.5,91,71,1.95,RU,1680195830
470,tsiroanomandidy,-18.7667,46.0333,20.5,93,78,0.96,MG,1680195830
471,bambous virieux,-20.3428,57.7575,27.14,89,40,5.14,MU,1680195830
472,rayon,19.1444,-99.5836,19.5,42,100,1.82,MX,1680195830
473,dawlatabad,36.4141,64.9053,21.28,41,18,2.44,AF,1680195831
474,bako,5.7833,36.5667,20.05,74,70,1.77,ET,1680195831
475,pueblo nuevo,23.3833,-105.3833,21.66,12,99,2.92,MX,1680195831
476,manicore,-5.8092,-61.3003,29.97,74,75,1.54,BR,1680195831
477,turka,49.1541,23.0297,4.89,91,93,5.13,UA,1680195831
478,meulaboh,4.1363,96.1285,25.37,85,100,2.15,ID,1680195832
479,salalah,17.0151,54.0924,26.76,56,7,1.46,OM,1680195832
480,chirawa,28.2408,75.6448,21.84,57,98,3.39,IN,1680195832
481,ancud,-41.8697,-73.8203,11.47,70,63,1.36,CL,1680195666
482,agadir,30.4202,-9.5982,37.25,22,70,6.11,MA,1680195832
483,sicuani,-14.2694,-71.2261,14.49,54,86,0.99,PE,1680195832
484,eenhana,-17.4667,16.3333,25.57,47,82,1.18,NA,1680195832
485,manbij,36.5281,37.9549,7.74,53,94,4.87,SY,1680195832
486,sibu,2.3,111.8167,25.17,94,40,0.0,MY,1680195833
487,oxbow,49.2333,-102.1676,-7.98,81,85,2.07,CA,1680195833
488,mattru,7.6244,-11.8332,33.39,46,74,3.02,SL,1680195833
489,inta,66.0317,60.1659,-5.92,78,100,4.58,RU,1680195833
490,vao,-22.6667,167.4833,24.88,81,75,3.82,NC,1680195833
491,newark,40.7357,-74.1724,6.91,35,20,7.15,US,1680195649
492,acapulco,16.8634,-99.8901,29.9,66,75,4.12,MX,1680195690
493,zavallya,48.2135,30.0156,5.21,47,1,1.89,UA,1680195833
494,poum,-20.2333,164.0167,26.32,78,100,4.01,NC,1680195833
495,haines junction,60.7522,-137.5108,-9.03,73,100,0.0,CA,1680195833
496,sambava,-14.2667,50.1667,27.01,79,100,4.31,MG,1680195834
497,mitsamiouli,-11.3847,43.2844,28.11,75,63,1.94,KM,1680195834
498,chitipa,-9.7024,33.2697,18.37,94,100,1.9,MW,1680195834
499,havoysund,70.9963,24.6622,-1.87,99,100,1.78,NO,1680195834
500,kungalv,57.871,11.9805,2.84,91,100,5.72,SE,1680195646
501,jalingo,8.8833,11.3667,35.77,10,25,0.18,NG,1680195834
502,pemangkat,1.1667,108.9667,25.64,86,100,1.98,ID,1680195834
503,roblin,51.23,-101.3565,-5.75,92,100,0.88,CA,1680195658
504,pasighat,28.0667,95.3333,19.12,70,94,1.87,IN,1680195834
505,lexington,37.9887,-84.4777,14.97,44,0,4.12,US,1680195537
506,hay river,60.8156,-115.7999,-12.01,79,75,4.12,CA,1680195835
507,valuyki,50.2035,38.1067,4.72,78,100,9.57,RU,1680195835
508,senno,59.5336,33.9167,-5.97,94,58,0.29,RU,1680195835
509,arlit,18.7369,7.3853,32.23,5,1,7.92,NE,1680195835
510,mnogovershinnyy,53.9353,139.9242,-5.9,97,96,0.52,RU,1680195835
511,nuuk,64.1835,-51.7216,-4.66,50,0,7.72,GL,1680195835
512,gornyy,55.1153,83.9059,-8.77,92,61,2.39,RU,1680195835
513,uyutne,45.1994,33.3014,3.64,60,100,5.04,UA,1680195835
514,doctor juan leon mallorquin,-25.4,-55.2667,22.85,37,2,1.77,PY,1680195835
515,guerrero negro,27.9769,-114.0611,15.68,57,88,8.22,MX,1680195835
516,privas,44.5833,4.5,18.46,64,66,1.95,FR,1680195836
517,graham,47.0529,-122.2943,8.56,76,75,5.14,US,1680195836
518,san clemente,33.427,-117.612,12.63,88,72,0.89,US,1680195836
519,vaitape,-16.5167,-151.75,27.47,75,58,3.0,PF,1680195836
520,flinders,-34.5833,150.8552,15.66,67,6,1.34,AU,1680195836
521,san jose,37.3394,-121.895,11.15,80,75,1.79,US,1680195581
522,ust-maya,60.4167,134.5333,-1.29,85,100,4.69,RU,1680195837
523,tsuyama,35.05,134.0,7.13,72,100,0.75,JP,1680195837
524,taoudenni,22.6783,-3.9836,34.48,5,0,9.75,ML,1680195837
525,suntar,62.1444,117.6319,-11.22,81,65,5.38,RU,1680195837
526,palmerston,-12.486,130.9833,26.99,91,98,1.54,AU,1680195837
527,san vicente,-26.6167,-54.1333,31.04,40,95,0.99,AR,1680195837
528,vangaindrano,-23.35,47.6,23.72,91,36,2.94,MG,1680195837
529,batagay-alyta,67.8006,130.4114,-20.5,99,100,2.2,RU,1680195837
530,vodnyy,63.5046,53.4095,0.22,86,100,5.09,RU,1680195837
531,yeppoon,-23.1333,150.7333,22.88,88,43,1.01,AU,1680195842
532,flin flon,54.7682,-101.865,-11.09,48,20,2.57,CA,1680195607
533,elko,41.0002,-115.5012,-0.43,79,92,3.18,US,1680195608
534,zhigalovo,54.8097,105.1578,-0.78,98,92,0.93,RU,1680195843
535,kutum,14.2,24.6667,26.56,11,39,6.04,SD,1680195843
536,gaoua,10.2992,-3.2508,35.15,22,100,3.53,BF,1680195844
537,euclides da cunha,-10.5075,-39.0158,28.45,52,40,4.87,BR,1680195844
538,alofi,-19.0595,-169.9187,25.94,89,99,2.57,NU,1680195844
539,sokoni,-6.4333,39.55,29.92,75,28,3.42,TZ,1680195845
540,port blair,11.6667,92.75,28.02,83,40,1.03,IN,1680195845
541,bowmore,34.9421,-79.3031,19.92,34,0,3.6,US,1680195845
542,deputatskiy,69.3,139.9,-24.14,99,100,1.04,RU,1680195845
543,armenia,40.0,45.0,5.23,60,100,1.65,AM,1680195846
544,kozhevnikovo,56.2589,83.9714,-6.21,94,46,2.32,RU,1680195846
545,chara,56.9064,118.2631,-2.85,79,23,0.87,RU,1680195811
546,la orilla,17.9833,-102.2333,30.32,41,100,2.98,MX,1680195846
547,khash,28.2211,61.2158,19.3,34,45,2.01,IR,1680195847
548,labrea,-7.2586,-64.7981,33.25,51,91,1.25,BR,1680195847
549,horsham,51.064,-0.3272,14.45,80,40,5.66,GB,1680195848
550,hit,33.6416,42.8251,18.62,37,0,4.12,IQ,1680195848
551,hualmay,-11.0964,-77.6139,27.42,67,42,3.83,PE,1680195848
552,sola,-13.8833,167.55,27.76,71,98,1.76,VU,1680195849
553,tarko-sale,64.9225,77.785,-20.95,96,59,5.05,RU,1680195849
554,salta,-24.7859,-65.4117,29.33,66,40,3.6,AR,1680195850
555,rindal,63.0565,9.2124,-4.23,89,95,2.44,NO,1680195850
556,matamoros,25.5333,-103.25,25.62,34,63,1.69,MX,1680195680
557,puri,19.8,85.85,28.29,85,37,7.11,IN,1680195851
558,sanduleni,46.45,26.7333,9.28,23,9,4.12,RO,1680195851
559,sterling,39.0062,-77.4286,9.67,39,0,4.12,US,1680195801
560,kununurra,-15.7667,128.7333,23.99,88,100,0.0,AU,1680195851
561,san isidro,-12.1167,-77.05,25.77,73,75,4.12,PE,1680195851
562,mangaluru,12.8667,74.8833,26.48,73,20,1.54,IN,1680195852
563,itupiranga,-5.1347,-49.3267,31.18,69,53,1.86,BR,1680195852
564,taonan,45.3333,122.7833,10.19,40,1,0.56,CN,1680195852
565,daru,-9.0763,143.2092,26.32,85,40,3.73,PG,1680195852
566,araguari,-18.6472,-48.1872,29.16,43,6,2.28,BR,1680195717
567,loubomo,-4.1997,12.6739,21.51,97,100,0.89,CG,1680195852
568,awbari,26.5921,12.7805,24.26,18,0,4.97,LY,1680195854
569,hovd,48.0056,91.6419,3.66,44,35,4.44,MN,1680195854
570,chamba,32.5667,76.1333,16.1,73,75,3.07,IN,1680195855
571,catuday,16.2923,119.8062,25.57,81,72,2.64,PH,1680195855
572,montague,42.5356,-72.5351,4.83,31,11,1.34,US,1680195856
573,tessalit,20.1986,1.0114,34.43,4,0,5.14,ML,1680195856
574,rossland,49.0831,-117.8022,4.39,56,100,0.29,CA,1680195607
575,ouadda,8.0777,22.4007,30.74,19,65,0.79,CF,1680195857
576,santa clara,22.4,-79.9667,29.81,51,75,5.14,CU,1680195857
577,campina verde,-19.5356,-49.4864,30.41,48,8,1.84,BR,1680195858
578,nerang,-27.9833,153.3333,19.21,79,0,1.82,AU,1680195858
579,cabinda,-5.55,12.2,25.72,86,100,1.9,AO,1680195859
580,albert lea,43.648,-93.3683,3.87,56,97,5.66,US,1680195859
581,mudgee,-32.5943,149.5871,8.12,84,0,1.25,AU,1680195860
582,clemson,34.6834,-82.8374,20.17,31,0,2.06,US,1680195789
583,ricardo palma,-11.9181,-76.6664,24.78,75,90,3.81,PE,1680195860
584,cianjur,-6.8224,107.1393,21.84,96,100,0.71,ID,1680195861
585,port hedland,-20.3167,118.5667,27.03,89,16,1.54,AU,1680195861
586,buzuluk,52.7807,52.2635,4.46,73,87,8.03,RU,1680195861
587,nelson bay,-32.7167,152.15,17.22,75,5,4.47,AU,1680195861
588,la ronge,55.1001,-105.2842,-8.86,48,20,2.57,CA,1680195862
589,katsuura,35.1333,140.3,14.18,81,88,3.84,JP,1680195862
590,mlimba,-8.8,35.8167,22.45,98,100,0.45,TZ,1680195862
591,ulverstone,-41.15,146.1667,12.9,87,41,5.53,AU,1680195863
592,kemijarvi,66.7131,27.4306,-8.07,92,100,4.7,FI,1680195863
593,dingle,10.9995,122.6711,24.62,88,100,2.99,PH,1680195863
594,nouadhibou,20.931,-17.0347,25.99,57,0,6.17,MR,1680195863
595,chegdomyn,51.1167,133.0167,-7.58,94,31,0.78,RU,1680195865
596,asau,46.4333,26.4,8.51,59,30,2.61,RO,1680195865
597,koshurnikovo,54.1667,93.3,-7.05,76,100,3.24,RU,1680195866
